{
"type": "FeatureCollection",
"name": "Arua_Mun_Banks",
"crs": { "type": "name", "properties": { "name": "urn:ogc:def:crs:OGC:1.3:CRS84" } },
"features": [
{ "type": "Feature", "properties": { "ID": 5342523593.0, "BizType": "atm", "BizName": "Nsambia North", "Address1": null, "Address2": null, "PostalBox": null, "City": "dfcu", "Tel": null, "Email": null, "Website": null, "Remarks": null }, "geometry": { "type": "Point", "coordinates": [ 30.9108767, 3.009173299681585 ] } },
{ "type": "Feature", "properties": { "ID": 5342523591.0, "BizType": "atm", "BizName": "Anyafiyo West", "Address1": null, "Address2": null, "PostalBox": null, "City": "centenary", "Tel": null, "Email": null, "Website": null, "Remarks": null }, "geometry": { "type": "Point", "coordinates": [ 30.9128353, 3.018185599680681 ] } },
{ "type": "Feature", "properties": { "ID": 5498386845.0, "BizType": "bank", "BizName": "Bank Of Uganda", "Address1": null, "Address2": null, "PostalBox": null, "City": "Stanbic", "Tel": null, "Email": null, "Website": null, "Remarks": null }, "geometry": { "type": "Point", "coordinates": [ 30.911735, 3.019694999680528 ] } },
{ "type": "Feature", "properties": { "ID": 2092174146.0, "BizType": "bank", "BizName": "Stanbic Bank", "Address1": null, "Address2": null, "PostalBox": null, "City": "Stanbic Bank", "Tel": null, "Email": null, "Website": null, "Remarks": null }, "geometry": { "type": "Point", "coordinates": [ 30.9113241, 3.020092999680489 ] } },
{ "type": "Feature", "properties": { "ID": 1660620609.0, "BizType": "bank", "BizName": "Bank of Africa", "Address1": null, "Address2": null, "PostalBox": null, "City": "Bank_of_africa", "Tel": null, "Email": null, "Website": null, "Remarks": null }, "geometry": { "type": "Point", "coordinates": [ 30.91114, 3.020853299680413 ] } },
{ "type": "Feature", "properties": { "ID": 5498385994.0, "BizType": "bank", "BizName": "Stanbic Bank", "Address1": null, "Address2": null, "PostalBox": null, "City": "Stanbic", "Tel": null, "Email": null, "Website": null, "Remarks": null }, "geometry": { "type": "Point", "coordinates": [ 30.911425, 3.020256699680472 ] } },
{ "type": "Feature", "properties": { "ID": 1660620621.0, "BizType": "bank", "BizName": "Housing Finance Bank", "Address1": null, "Address2": null, "PostalBox": null, "City": "Housing Finance Bank Ltd.", "Tel": null, "Email": null, "Website": null, "Remarks": null }, "geometry": { "type": "Point", "coordinates": [ 30.9097153, 3.023242699680173 ] } },
{ "type": "Feature", "properties": { "ID": 5498386882.0, "BizType": "bank", "BizName": "FINCA", "Address1": null, "Address2": null, "PostalBox": null, "City": "Housing Finance", "Tel": null, "Email": null, "Website": null, "Remarks": null }, "geometry": { "type": "Point", "coordinates": [ 30.9097617, 3.023588299680138 ] } },
{ "type": "Feature", "properties": { "ID": 5342523613.0, "BizType": "atm", "BizName": "Gagaa Cee", "Address1": null, "Address2": null, "PostalBox": null, "City": "kcb", "Tel": null, "Email": null, "Website": null, "Remarks": null }, "geometry": { "type": "Point", "coordinates": [ 30.908495, 3.024803299680015 ] } },
{ "type": "Feature", "properties": { "ID": 5498386005.0, "BizType": "bank", "BizName": "Finance Trust Bank", "Address1": null, "Address2": null, "PostalBox": null, "City": "Stanbic", "Tel": null, "Email": null, "Website": null, "Remarks": null }, "geometry": { "type": "Point", "coordinates": [ 30.9093476, 3.02436979968006 ] } },
{ "type": "Feature", "properties": { "ID": 5498386906.0, "BizType": "bank", "BizName": "Kenya Commercial Bank", "Address1": null, "Address2": null, "PostalBox": null, "City": "KCB", "Tel": null, "Email": null, "Website": null, "Remarks": null }, "geometry": { "type": "Point", "coordinates": [ 30.9089861, 3.024944999680003 ] } },
{ "type": "Feature", "properties": { "ID": 5342524428.0, "BizType": "atm", "BizName": "Gagaa Cee", "Address1": null, "Address2": null, "PostalBox": null, "City": "finance_trust", "Tel": null, "Email": null, "Website": null, "Remarks": null }, "geometry": { "type": "Point", "coordinates": [ 30.9090967, 3.024693299680028 ] } },
{ "type": "Feature", "properties": { "ID": 5498386822.0, "BizType": "bank", "BizName": "Equity Bank", "Address1": null, "Address2": null, "PostalBox": null, "City": "Equity", "Tel": null, "Email": null, "Website": null, "Remarks": null }, "geometry": { "type": "Point", "coordinates": [ 30.910615, 3.021744999680324 ] } },
{ "type": "Feature", "properties": { "ID": 3559337794.0, "BizType": "bank", "BizName": "Orient Bank", "Address1": null, "Address2": null, "PostalBox": null, "City": null, "Tel": null, "Email": null, "Website": null, "Remarks": null }, "geometry": { "type": "Point", "coordinates": [ 30.9108946, 3.021723699680324 ] } },
{ "type": "Feature", "properties": { "ID": 5498386849.0, "BizType": "bank", "BizName": "Pride Microfinance", "Address1": null, "Address2": null, "PostalBox": null, "City": "Stanbic", "Tel": null, "Email": null, "Website": null, "Remarks": null }, "geometry": { "type": "Point", "coordinates": [ 30.9103183, 3.022083299680289 ] } },
{ "type": "Feature", "properties": { "ID": 5498386878.0, "BizType": "bank", "BizName": "DFCU", "Address1": null, "Address2": null, "PostalBox": null, "City": "DFCU", "Tel": null, "Email": null, "Website": null, "Remarks": null }, "geometry": { "type": "Point", "coordinates": [ 30.910261, 3.022206399680277 ] } },
{ "type": "Feature", "properties": { "ID": 3493040611.0, "BizType": "bank", "BizName": "Centenary Bank", "Address1": null, "Address2": null, "PostalBox": null, "City": "Centenary Bank", "Tel": null, "Email": null, "Website": null, "Remarks": null }, "geometry": { "type": "Point", "coordinates": [ 30.9103894, 3.021981899680299 ] } },
{ "type": "Feature", "properties": { "ID": 5498386826.0, "BizType": "bank", "BizName": "Diamond Trust Bank", "Address1": null, "Address2": null, "PostalBox": null, "City": "Diamond", "Tel": null, "Email": null, "Website": null, "Remarks": null }, "geometry": { "type": "Point", "coordinates": [ 30.9103866, 3.021998999680298 ] } },
{ "type": "Feature", "properties": { "ID": 5498386900.0, "BizType": "bank", "BizName": "Centenary Rural Development Bank", "Address1": null, "Address2": null, "PostalBox": null, "City": "Centenary", "Tel": null, "Email": null, "Website": null, "Remarks": null }, "geometry": { "type": "Point", "coordinates": [ 30.9104783, 3.021929999680305 ] } },
{ "type": "Feature", "properties": { "ID": 3493040612.0, "BizType": "bank", "BizName": "DTB", "Address1": null, "Address2": null, "PostalBox": null, "City": "Diamond Trust Bank", "Tel": null, "Email": null, "Website": null, "Remarks": null }, "geometry": { "type": "Point", "coordinates": [ 30.9106097, 3.022260199680272 ] } },
{ "type": "Feature", "properties": { "ID": 5342524426.0, "BizType": "atm", "BizName": "Lia", "Address1": null, "Address2": null, "PostalBox": null, "City": "abc_capital_bank", "Tel": null, "Email": null, "Website": null, "Remarks": null }, "geometry": { "type": "Point", "coordinates": [ 30.9113633, 3.022254999680272 ] } },
{ "type": "Feature", "properties": { "ID": 1660620625.0, "BizType": "bank", "BizName": "Crane Bank", "Address1": null, "Address2": null, "PostalBox": null, "City": "Crane Bank", "Tel": null, "Email": null, "Website": null, "Remarks": null }, "geometry": { "type": "Point", "coordinates": [ 30.9100761, 3.022635899680234 ] } },
{ "type": "Feature", "properties": { "ID": 3559337793.0, "BizType": "bank", "BizName": "Barclays", "Address1": null, "Address2": null, "PostalBox": null, "City": "Barclays Bank of Uganda Ltd.", "Tel": null, "Email": null, "Website": null, "Remarks": null }, "geometry": { "type": "Point", "coordinates": [ 30.91077, 3.022794999680218 ] } },
{ "type": "Feature", "properties": { "ID": 5498386904.0, "BizType": "bank", "BizName": "Barcleys", "Address1": null, "Address2": null, "PostalBox": null, "City": "Barclays", "Tel": null, "Email": null, "Website": null, "Remarks": null }, "geometry": { "type": "Point", "coordinates": [ 30.9107731, 3.022885699680209 ] } },
{ "type": "Feature", "properties": { "ID": 5342523576.0, "BizType": "atm", "BizName": "Obolokofuku", "Address1": null, "Address2": null, "PostalBox": null, "City": "centenary", "Tel": null, "Email": null, "Website": null, "Remarks": null }, "geometry": { "type": "Point", "coordinates": [ 30.9091533, 3.028163299679678 ] } }
]
}
