{
"type": "FeatureCollection",
"name": "fuel_stations",
"crs": { "type": "name", "properties": { "name": "urn:ogc:def:crs:OGC:1.3:CRS84" } },
"features": [
{ "type": "Feature", "properties": { "ID": 5338650969.0, "BizType": "fuel", "BizName": "Gil Oil", "Address1": null, "Address2": null, "PostalBox": null, "City": "Gilbaro", "Tel": null, "Email": null, "Website": null, "Remarks": null }, "geometry": { "type": "Point", "coordinates": [ 30.9113567, 3.006779999681826 ] } },
{ "type": "Feature", "properties": { "ID": 5338650970.0, "BizType": "fuel", "BizName": "Papa", "Address1": null, "Address2": null, "PostalBox": null, "City": "Paps", "Tel": null, "Email": null, "Website": null, "Remarks": null }, "geometry": { "type": "Point", "coordinates": [ 30.91097, 3.006923299681812 ] } },
{ "type": "Feature", "properties": { "ID": 3535810409.0, "BizType": "fuel", "BizName": "Shell", "Address1": null, "Address2": null, "PostalBox": null, "City": null, "Tel": null, "Email": null, "Website": null, "Remarks": null }, "geometry": { "type": "Point", "coordinates": [ 30.9111559, 3.008503299681653 ] } },
{ "type": "Feature", "properties": { "ID": 5338651001.0, "BizType": "fuel", "BizName": "V Power", "Address1": null, "Address2": null, "PostalBox": null, "City": "V Power", "Tel": null, "Email": null, "Website": null, "Remarks": null }, "geometry": { "type": "Point", "coordinates": [ 30.91103, 3.008568299681646 ] } },
{ "type": "Feature", "properties": { "ID": 5338650982.0, "BizType": "fuel", "BizName": "Don", "Address1": null, "Address2": null, "PostalBox": null, "City": "Don", "Tel": null, "Email": null, "Website": null, "Remarks": null }, "geometry": { "type": "Point", "coordinates": [ 30.912825, 3.011004999681401 ] } },
{ "type": "Feature", "properties": { "ID": 3493040616.0, "BizType": "fuel", "BizName": "Hass Petrol Station", "Address1": null, "Address2": null, "PostalBox": null, "City": null, "Tel": null, "Email": null, "Website": null, "Remarks": null }, "geometry": { "type": "Point", "coordinates": [ 30.9140511, 3.013762299681124 ] } },
{ "type": "Feature", "properties": { "ID": 1999487944.0, "BizType": "fuel", "BizName": "Total", "Address1": null, "Address2": null, "PostalBox": null, "City": null, "Tel": null, "Email": null, "Website": null, "Remarks": null }, "geometry": { "type": "Point", "coordinates": [ 30.9145124, 3.015183799680982 ] } },
{ "type": "Feature", "properties": { "ID": 3493040880.0, "BizType": "fuel", "BizName": "Total", "Address1": null, "Address2": null, "PostalBox": null, "City": null, "Tel": null, "Email": null, "Website": null, "Remarks": null }, "geometry": { "type": "Point", "coordinates": [ 30.9112371, 3.020406099680458 ] } },
{ "type": "Feature", "properties": { "ID": 5496614560.0, "BizType": "fuel", "BizName": "Total", "Address1": null, "Address2": null, "PostalBox": null, "City": "Total", "Tel": null, "Email": null, "Website": null, "Remarks": null }, "geometry": { "type": "Point", "coordinates": [ 30.9112567, 3.020421699680456 ] } },
{ "type": "Feature", "properties": { "ID": 5338650953.0, "BizType": "fuel", "BizName": "Jaab Station", "Address1": null, "Address2": null, "PostalBox": null, "City": "Private", "Tel": null, "Email": null, "Website": null, "Remarks": null }, "geometry": { "type": "Point", "coordinates": [ 30.91111, 3.02287169968021 ] } },
{ "type": "Feature", "properties": { "ID": 5043232421.0, "BizType": "fuel", "BizName": "Shell", "Address1": null, "Address2": null, "PostalBox": null, "City": null, "Tel": null, "Email": null, "Website": null, "Remarks": null }, "geometry": { "type": "Point", "coordinates": [ 30.9128368, 3.022395499680258 ] } },
{ "type": "Feature", "properties": { "ID": 5338650999.0, "BizType": "fuel", "BizName": "Shell Fuel Station", "Address1": null, "Address2": null, "PostalBox": null, "City": "Shell Fuel Company Limited", "Tel": null, "Email": null, "Website": null, "Remarks": null }, "geometry": { "type": "Point", "coordinates": [ 30.9129233, 3.022424999680254 ] } },
{ "type": "Feature", "properties": { "ID": 4969719823.0, "BizType": "fuel", "BizName": "Shire", "Address1": null, "Address2": null, "PostalBox": null, "City": null, "Tel": null, "Email": null, "Website": null, "Remarks": null }, "geometry": { "type": "Point", "coordinates": [ 30.9123001, 3.024778399680019 ] } },
{ "type": "Feature", "properties": { "ID": 1660640506.0, "BizType": "fuel", "BizName": "Oil Well", "Address1": null, "Address2": null, "PostalBox": null, "City": null, "Tel": null, "Email": null, "Website": null, "Remarks": null }, "geometry": { "type": "Point", "coordinates": [ 30.9123766, 3.02556789967994 ] } },
{ "type": "Feature", "properties": { "ID": 5338650995.0, "BizType": "fuel", "BizName": "Shire", "Address1": null, "Address2": null, "PostalBox": null, "City": "Shire", "Tel": null, "Email": null, "Website": null, "Remarks": null }, "geometry": { "type": "Point", "coordinates": [ 30.9126167, 3.026171699679879 ] } },
{ "type": "Feature", "properties": { "ID": 1660640539.0, "BizType": "fuel", "BizName": null, "Address1": null, "Address2": null, "PostalBox": null, "City": null, "Tel": null, "Email": null, "Website": null, "Remarks": null }, "geometry": { "type": "Point", "coordinates": [ 30.9131721, 3.025448699679951 ] } },
{ "type": "Feature", "properties": { "ID": 5033632323.0, "BizType": "fuel", "BizName": "Ham Petroleum", "Address1": null, "Address2": null, "PostalBox": null, "City": null, "Tel": null, "Email": null, "Website": null, "Remarks": null }, "geometry": { "type": "Point", "coordinates": [ 30.9132406, 3.032449799679249 ] } },
{ "type": "Feature", "properties": { "ID": 5044051822.0, "BizType": "fuel", "BizName": "Skao Oil", "Address1": null, "Address2": null, "PostalBox": null, "City": null, "Tel": null, "Email": null, "Website": null, "Remarks": null }, "geometry": { "type": "Point", "coordinates": [ 30.91319, 3.03663169967883 ] } }
]
}
