{
"type": "FeatureCollection",
"name": "money_agents",
"crs": { "type": "name", "properties": { "name": "urn:ogc:def:crs:OGC:1.3:CRS84" } },
"features": [
{ "type": "Feature", "properties": { "ID": 5342524427.0, "BizType": "mobile_money_agent", "BizName": "Club Cell", "Address1": null, "Address2": null, "PostalBox": null, "City": null, "Tel": null, "Email": null, "Website": null, "Remarks": null }, "geometry": { "type": "Point", "coordinates": [ 30.903676, 3.029598299679535 ] } },
{ "type": "Feature", "properties": { "ID": 5342523581.0, "BizType": "mobile_money_agent", "BizName": "Gagaa Cee", "Address1": null, "Address2": null, "PostalBox": null, "City": null, "Tel": null, "Email": null, "Website": null, "Remarks": null }, "geometry": { "type": "Point", "coordinates": [ 30.9087883, 3.025181699679979 ] } },
{ "type": "Feature", "properties": { "ID": 5342523601.0, "BizType": "mobile_money_agent", "BizName": "Lia", "Address1": null, "Address2": null, "PostalBox": null, "City": null, "Tel": null, "Email": null, "Website": null, "Remarks": null }, "geometry": { "type": "Point", "coordinates": [ 30.9117167, 3.021628299680335 ] } },
{ "type": "Feature", "properties": { "ID": 5342523600.0, "BizType": "mobile_money_agent", "BizName": "Upper Bibia", "Address1": null, "Address2": null, "PostalBox": null, "City": null, "Tel": null, "Email": null, "Website": null, "Remarks": null }, "geometry": { "type": "Point", "coordinates": [ 30.9126783, 3.023852599680112 ] } },
{ "type": "Feature", "properties": { "ID": 5342524425.0, "BizType": "mobile_money_agent", "BizName": "Upper Bibia", "Address1": null, "Address2": null, "PostalBox": null, "City": null, "Tel": null, "Email": null, "Website": null, "Remarks": null }, "geometry": { "type": "Point", "coordinates": [ 30.913129, 3.02376229968012 ] } },
{ "type": "Feature", "properties": { "ID": 5342523616.0, "BizType": "mobile_money_agent", "BizName": "Upper Bibia", "Address1": null, "Address2": null, "PostalBox": null, "City": null, "Tel": null, "Email": null, "Website": null, "Remarks": null }, "geometry": { "type": "Point", "coordinates": [ 30.9125787, 3.024328299680064 ] } },
{ "type": "Feature", "properties": { "ID": 5342523604.0, "BizType": "mobile_money_agent", "BizName": "Baruku Central", "Address1": null, "Address2": null, "PostalBox": null, "City": null, "Tel": null, "Email": null, "Website": null, "Remarks": null }, "geometry": { "type": "Point", "coordinates": [ 30.9134302, 3.030406399679454 ] } },
{ "type": "Feature", "properties": { "ID": 5342524423.0, "BizType": "mobile_money_agent", "BizName": "Oli B", "Address1": null, "Address2": null, "PostalBox": null, "City": null, "Tel": null, "Email": null, "Website": null, "Remarks": null }, "geometry": { "type": "Point", "coordinates": [ 30.9093617, 3.03283329967921 ] } },
{ "type": "Feature", "properties": { "ID": 5342523592.0, "BizType": "mobile_money_agent", "BizName": "Oli A", "Address1": null, "Address2": null, "PostalBox": null, "City": null, "Tel": null, "Email": null, "Website": null, "Remarks": null }, "geometry": { "type": "Point", "coordinates": [ 30.9133517, 3.032993299679194 ] } },
{ "type": "Feature", "properties": { "ID": 5342523614.0, "BizType": "mobile_money_agent", "BizName": "Oli A", "Address1": null, "Address2": null, "PostalBox": null, "City": null, "Tel": null, "Email": null, "Website": null, "Remarks": null }, "geometry": { "type": "Point", "coordinates": [ 30.9131917, 3.038296699678663 ] } }
]
}
