{
"type": "FeatureCollection",
"name": "Primary_Prep",
"crs": { "type": "name", "properties": { "name": "urn:ogc:def:crs:OGC:1.3:CRS84" } },
"features": [
{ "type": "Feature", "properties": { "ID": 5336485569.0, "BizType": "school", "BizName": "Arua Disciplined Toilaring School", "Address1": "no", "Address2": null, "PostalBox": null, "City": "Private", "Tel": null, "Email": null, "Website": null, "Remarks": null }, "geometry": { "type": "Point", "coordinates": [ 30.9114383, 3.006378299681865 ] } },
{ "type": "Feature", "properties": { "ID": 5336485564.0, "BizType": "school", "BizName": "Day Star Junior Nursery", "Address1": "no", "Address2": null, "PostalBox": null, "City": "Private", "Tel": null, "Email": null, "Website": null, "Remarks": null }, "geometry": { "type": "Point", "coordinates": [ 30.9134483, 3.005206699681982 ] } },
{ "type": "Feature", "properties": { "ID": 5336485586.0, "BizType": "school", "BizName": "Bright Star Nursery And Primary School", "Address1": "solar", "Address2": null, "PostalBox": null, "City": "Private", "Tel": null, "Email": null, "Website": null, "Remarks": null }, "geometry": { "type": "Point", "coordinates": [ 30.9122917, 3.008559999681646 ] } },
{ "type": "Feature", "properties": { "ID": 4021707428.0, "BizType": "school", "BizName": "Nile High School", "Address1": null, "Address2": null, "PostalBox": null, "City": null, "Tel": null, "Email": null, "Website": null, "Remarks": null }, "geometry": { "type": "Point", "coordinates": [ 30.9063822, 3.015130299680986 ] } },
{ "type": "Feature", "properties": { "ID": 4021707430.0, "BizType": "school", "BizName": "Niva Primary School", "Address1": null, "Address2": null, "PostalBox": null, "City": null, "Tel": null, "Email": null, "Website": null, "Remarks": null }, "geometry": { "type": "Point", "coordinates": [ 30.908106, 3.01370909968113 ] } },
{ "type": "Feature", "properties": { "ID": 4021707435.0, "BizType": "kindergarten", "BizName": "Ophan Jaden Nursery School", "Address1": null, "Address2": null, "PostalBox": null, "City": null, "Tel": null, "Email": null, "Website": null, "Remarks": null }, "geometry": { "type": "Point", "coordinates": [ 30.9118752, 3.010406999681461 ] } },
{ "type": "Feature", "properties": { "ID": 4021707395.0, "BizType": "school", "BizName": "Arua Hill Primary School", "Address1": "power_grid", "Address2": null, "PostalBox": null, "City": "Government", "Tel": null, "Email": null, "Website": null, "Remarks": null }, "geometry": { "type": "Point", "coordinates": [ 30.9148607, 3.011472199681354 ] } },
{ "type": "Feature", "properties": { "ID": 4021707406.0, "BizType": "school", "BizName": "Bilal Islamic", "Address1": null, "Address2": null, "PostalBox": null, "City": null, "Tel": null, "Email": null, "Website": null, "Remarks": null }, "geometry": { "type": "Point", "coordinates": [ 30.9070423, 3.019654299680532 ] } },
{ "type": "Feature", "properties": { "ID": 4021707410.0, "BizType": "school", "BizName": "Christ The King Nursery And Primary School", "Address1": "generator;power_grid", "Address2": null, "PostalBox": null, "City": "Government", "Tel": null, "Email": null, "Website": null, "Remarks": null }, "geometry": { "type": "Point", "coordinates": [ 30.9142407, 3.017991199680699 ] } },
{ "type": "Feature", "properties": { "ID": 5357144606.0, "BizType": "school", "BizName": "Arua Comprehensive Nursing School", "Address1": "generator;power_grid", "Address2": null, "PostalBox": null, "City": "Government", "Tel": null, "Email": null, "Website": null, "Remarks": null }, "geometry": { "type": "Point", "coordinates": [ 30.9142176, 3.019845699680513 ] } },
{ "type": "Feature", "properties": { "ID": 5330895179.0, "BizType": "kindergarten", "BizName": "Star foundation Nursery School", "Address1": "no", "Address2": null, "PostalBox": null, "City": "Private individual based", "Tel": null, "Email": null, "Website": null, "Remarks": null }, "geometry": { "type": "Point", "coordinates": [ 30.9032217, 3.0219832996803 ] } },
{ "type": "Feature", "properties": { "ID": 5357144580.0, "BizType": "school", "BizName": "Ihilas Nursery and Primary School", "Address1": "power_grid", "Address2": null, "PostalBox": null, "City": "Private", "Tel": null, "Email": null, "Website": null, "Remarks": null }, "geometry": { "type": "Point", "coordinates": [ 30.9040548, 3.028800599679616 ] } },
{ "type": "Feature", "properties": { "ID": 5357144592.0, "BizType": "school", "BizName": "Twaiba Nursery and Primary School", "Address1": "power_grid", "Address2": null, "PostalBox": null, "City": "Private", "Tel": null, "Email": null, "Website": null, "Remarks": null }, "geometry": { "type": "Point", "coordinates": [ 30.8997377, 3.029715199679524 ] } },
{ "type": "Feature", "properties": { "ID": 4021707401.0, "BizType": "school", "BizName": "Arua Public Nursery & Primary School", "Address1": "solar;power_grid", "Address2": null, "PostalBox": null, "City": "Government", "Tel": null, "Email": null, "Website": null, "Remarks": null }, "geometry": { "type": "Point", "coordinates": [ 30.9090738, 3.021803799680317 ] } },
{ "type": "Feature", "properties": { "ID": 4021707402.0, "BizType": "school", "BizName": "Arua Public Secondary School", "Address1": "power_grid", "Address2": null, "PostalBox": null, "City": null, "Tel": null, "Email": null, "Website": null, "Remarks": null }, "geometry": { "type": "Point", "coordinates": [ 30.9083749, 3.02317509968018 ] } },
{ "type": "Feature", "properties": { "ID": 4021707400.0, "BizType": "kindergarten", "BizName": "Arua Public Nursery School", "Address1": null, "Address2": null, "PostalBox": null, "City": null, "Tel": null, "Email": null, "Website": null, "Remarks": null }, "geometry": { "type": "Point", "coordinates": [ 30.9092084, 3.022949499680203 ] } },
{ "type": "Feature", "properties": { "ID": 5357144562.0, "BizType": "school", "BizName": "Ibnabas Primary School", "Address1": "solar", "Address2": null, "PostalBox": null, "City": "Private", "Tel": null, "Email": null, "Website": null, "Remarks": null }, "geometry": { "type": "Point", "coordinates": [ 30.9045616, 3.024837399680012 ] } },
{ "type": "Feature", "properties": { "ID": 5357144603.0, "BizType": "childcare", "BizName": "Ibnabas Nursey School", "Address1": "solar", "Address2": null, "PostalBox": null, "City": "Private", "Tel": null, "Email": null, "Website": null, "Remarks": null }, "geometry": { "type": "Point", "coordinates": [ 30.9046287, 3.025713999679924 ] } },
{ "type": "Feature", "properties": { "ID": 5336485574.0, "BizType": "school", "BizName": "Bright Angel Nursery & Primary School", "Address1": "power_grid", "Address2": null, "PostalBox": null, "City": "Government", "Tel": null, "Email": null, "Website": null, "Remarks": null }, "geometry": { "type": "Point", "coordinates": [ 30.9140383, 3.023659999680131 ] } },
{ "type": "Feature", "properties": { "ID": 4021707443.0, "BizType": "school", "BizName": "Tawakal Nursery & Primary School", "Address1": "no", "Address2": null, "PostalBox": null, "City": "Government", "Tel": null, "Email": null, "Website": null, "Remarks": null }, "geometry": { "type": "Point", "coordinates": [ 30.9146996, 3.025250699679971 ] } },
{ "type": "Feature", "properties": { "ID": 5336485594.0, "BizType": "school", "BizName": "Sir Andrew Nursery and Primary School", "Address1": "solar;power_grid", "Address2": null, "PostalBox": null, "City": null, "Tel": null, "Email": null, "Website": null, "Remarks": null }, "geometry": { "type": "Point", "coordinates": [ 30.9052157, 3.027200199679776 ] } },
{ "type": "Feature", "properties": { "ID": 5336485537.0, "BizType": "kindergarten", "BizName": "Golden Child Nursery and Primary", "Address1": "power_grid", "Address2": null, "PostalBox": null, "City": "Child care", "Tel": null, "Email": null, "Website": null, "Remarks": null }, "geometry": { "type": "Point", "coordinates": [ 30.90627, 3.027384099679758 ] } },
{ "type": "Feature", "properties": { "ID": 4021706787.0, "BizType": "kindergarten", "BizName": "Abiriambati Child Development Center", "Address1": null, "Address2": null, "PostalBox": null, "City": null, "Tel": null, "Email": null, "Website": null, "Remarks": null }, "geometry": { "type": "Point", "coordinates": [ 30.908527, 3.027320299679764 ] } },
{ "type": "Feature", "properties": { "ID": 5336485585.0, "BizType": "school", "BizName": "Bridge International Academy", "Address1": "no", "Address2": null, "PostalBox": null, "City": "Private", "Tel": null, "Email": null, "Website": null, "Remarks": null }, "geometry": { "type": "Point", "coordinates": [ 30.905745, 3.030633299679431 ] } },
{ "type": "Feature", "properties": { "ID": 4021707433.0, "BizType": "school", "BizName": "Oli Vocational Training", "Address1": null, "Address2": null, "PostalBox": null, "City": null, "Tel": null, "Email": null, "Website": null, "Remarks": null }, "geometry": { "type": "Point", "coordinates": [ 30.9071025, 3.030205599679475 ] } },
{ "type": "Feature", "properties": { "ID": 4021467586.0, "BizType": "school", "BizName": "Bilaal Nursery and Primary School", "Address1": null, "Address2": null, "PostalBox": null, "City": null, "Tel": null, "Email": null, "Website": null, "Remarks": null }, "geometry": { "type": "Point", "coordinates": [ 30.9068107, 3.030693499679426 ] } },
{ "type": "Feature", "properties": { "ID": 5336485568.0, "BizType": "school", "BizName": "Kings Nursery and Primary School", "Address1": "no", "Address2": null, "PostalBox": null, "City": null, "Tel": null, "Email": null, "Website": null, "Remarks": null }, "geometry": { "type": "Point", "coordinates": [ 30.9046233, 3.032214999679273 ] } },
{ "type": "Feature", "properties": { "ID": 4021468606.0, "BizType": "kindergarten", "BizName": "St Charles Lwanga Nursery School", "Address1": "power_grid", "Address2": null, "PostalBox": null, "City": null, "Tel": null, "Email": null, "Website": null, "Remarks": null }, "geometry": { "type": "Point", "coordinates": [ 30.9061279, 3.031752999679319 ] } },
{ "type": "Feature", "properties": { "ID": 4021467577.0, "BizType": "school", "BizName": "Al-jaria Community Nursery and Primary School", "Address1": null, "Address2": null, "PostalBox": null, "City": null, "Tel": null, "Email": null, "Website": null, "Remarks": null }, "geometry": { "type": "Point", "coordinates": [ 30.9090114, 3.031320899679363 ] } },
{ "type": "Feature", "properties": { "ID": 4021467576.0, "BizType": "kindergarten", "BizName": "Al-Janiape Nursery School", "Address1": null, "Address2": null, "PostalBox": null, "City": null, "Tel": null, "Email": null, "Website": null, "Remarks": null }, "geometry": { "type": "Point", "coordinates": [ 30.9094011, 3.031365699679358 ] } },
{ "type": "Feature", "properties": { "ID": 4021707397.0, "BizType": "school", "BizName": "Arua Islamic Secondary School", "Address1": "solar", "Address2": null, "PostalBox": null, "City": "Private", "Tel": null, "Email": null, "Website": null, "Remarks": null }, "geometry": { "type": "Point", "coordinates": [ 30.912693, 3.026993899679795 ] } },
{ "type": "Feature", "properties": { "ID": 5357144583.0, "BizType": "school", "BizName": "Jaden Memorial Secondary School", "Address1": "solar", "Address2": null, "PostalBox": null, "City": "Private", "Tel": null, "Email": null, "Website": null, "Remarks": null }, "geometry": { "type": "Point", "coordinates": [ 30.91093, 3.028316699679664 ] } },
{ "type": "Feature", "properties": { "ID": 4021707420.0, "BizType": "school", "BizName": "Homing Dove Primary School", "Address1": null, "Address2": null, "PostalBox": null, "City": null, "Tel": null, "Email": null, "Website": null, "Remarks": null }, "geometry": { "type": "Point", "coordinates": [ 30.9103823, 3.029111699679584 ] } },
{ "type": "Feature", "properties": { "ID": 4021707396.0, "BizType": "school", "BizName": "Arua Islamic Primary School", "Address1": "power_grid", "Address2": null, "PostalBox": null, "City": "Private", "Tel": null, "Email": null, "Website": null, "Remarks": null }, "geometry": { "type": "Point", "coordinates": [ 30.9128001, 3.027806799679715 ] } },
{ "type": "Feature", "properties": { "ID": 5336485549.0, "BizType": "school", "BizName": "Bayan Nursery and Primary School", "Address1": "power_grid", "Address2": null, "PostalBox": null, "City": "Private", "Tel": null, "Email": null, "Website": null, "Remarks": null }, "geometry": { "type": "Point", "coordinates": [ 30.914458, 3.027925699679703 ] } },
{ "type": "Feature", "properties": { "ID": 4021707442.0, "BizType": "school", "BizName": "Saint Peter's College Arua", "Address1": null, "Address2": null, "PostalBox": null, "City": null, "Tel": null, "Email": null, "Website": null, "Remarks": null }, "geometry": { "type": "Point", "coordinates": [ 30.9127863, 3.02935939967956 ] } },
{ "type": "Feature", "properties": { "ID": 5357144596.0, "BizType": "school", "BizName": "Homing Dove International Nursery And Primary School", "Address1": "solar;power_grid", "Address2": null, "PostalBox": null, "City": "Private", "Tel": null, "Email": null, "Website": null, "Remarks": null }, "geometry": { "type": "Point", "coordinates": [ 30.9107867, 3.03113329967938 ] } },
{ "type": "Feature", "properties": { "ID": 4021707432.0, "BizType": "kindergarten", "BizName": "Nursery School", "Address1": null, "Address2": null, "PostalBox": null, "City": null, "Tel": null, "Email": null, "Website": null, "Remarks": null }, "geometry": { "type": "Point", "coordinates": [ 30.9148577, 3.029699199679525 ] } },
{ "type": "Feature", "properties": { "ID": 1660640510.0, "BizType": "school", "BizName": "Arua Secondary School", "Address1": null, "Address2": null, "PostalBox": null, "City": null, "Tel": null, "Email": null, "Website": null, "Remarks": null }, "geometry": { "type": "Point", "coordinates": [ 30.91373, 3.031297399679366 ] } },
{ "type": "Feature", "properties": { "ID": 5336485578.0, "BizType": "school", "BizName": "Al-Hilal Nursery and primary school", "Address1": "no", "Address2": null, "PostalBox": null, "City": "Aate", "Tel": null, "Email": null, "Website": null, "Remarks": null }, "geometry": { "type": "Point", "coordinates": [ 30.9152807, 3.031272799679367 ] } },
{ "type": "Feature", "properties": { "ID": 4021707409.0, "BizType": "kindergarten", "BizName": "Child Development Centre", "Address1": null, "Address2": null, "PostalBox": null, "City": null, "Tel": null, "Email": null, "Website": null, "Remarks": null }, "geometry": { "type": "Point", "coordinates": [ 30.9186499, 3.012965699681204 ] } },
{ "type": "Feature", "properties": { "ID": 5357144587.0, "BizType": "kindergarten", "BizName": "Springs Kindagarten", "Address1": "generator;power_grid", "Address2": null, "PostalBox": null, "City": "Private", "Tel": null, "Email": null, "Website": null, "Remarks": null }, "geometry": { "type": "Point", "coordinates": [ 30.9177417, 3.01329829968117 ] } },
{ "type": "Feature", "properties": { "ID": 5357144620.0, "BizType": "school", "BizName": "Golden Treasure Nursery and Primary school", "Address1": "power_grid", "Address2": null, "PostalBox": null, "City": "Private", "Tel": null, "Email": null, "Website": null, "Remarks": null }, "geometry": { "type": "Point", "coordinates": [ 30.9201931, 3.015324199680968 ] } },
{ "type": "Feature", "properties": { "ID": 3154349927.0, "BizType": "school", "BizName": "Queens and Kings Nursery and Primary School", "Address1": "power_grid", "Address2": null, "PostalBox": null, "City": "Private", "Tel": null, "Email": null, "Website": null, "Remarks": null }, "geometry": { "type": "Point", "coordinates": [ 30.9207736, 3.017573399680741 ] } },
{ "type": "Feature", "properties": { "ID": 5357144593.0, "BizType": "school", "BizName": "Mvara Junior School", "Address1": "power_grid", "Address2": null, "PostalBox": null, "City": "Private", "Tel": null, "Email": null, "Website": null, "Remarks": null }, "geometry": { "type": "Point", "coordinates": [ 30.9249598, 3.016390799680861 ] } },
{ "type": "Feature", "properties": { "ID": 5336485551.0, "BizType": "kindergarten", "BizName": "Charis International school", "Address1": "power_grid", "Address2": null, "PostalBox": null, "City": "Private", "Tel": null, "Email": null, "Website": null, "Remarks": null }, "geometry": { "type": "Point", "coordinates": [ 30.9262281, 3.016427799680857 ] } },
{ "type": "Feature", "properties": { "ID": 5336485555.0, "BizType": "kindergarten", "BizName": "St Samuel Nursery school", "Address1": "power_grid", "Address2": null, "PostalBox": null, "City": "Private", "Tel": null, "Email": null, "Website": null, "Remarks": null }, "geometry": { "type": "Point", "coordinates": [ 30.9230237, 3.020423499680455 ] } },
{ "type": "Feature", "properties": { "ID": 4021707425.0, "BizType": "school", "BizName": "Mvara Junior School", "Address1": "no", "Address2": null, "PostalBox": null, "City": "Private", "Tel": null, "Email": null, "Website": null, "Remarks": null }, "geometry": { "type": "Point", "coordinates": [ 30.9319721, 3.014680399681033 ] } },
{ "type": "Feature", "properties": { "ID": 4021707444.0, "BizType": "school", "BizName": "Ushindi Primary School", "Address1": null, "Address2": null, "PostalBox": null, "City": null, "Tel": null, "Email": null, "Website": null, "Remarks": null }, "geometry": { "type": "Point", "coordinates": [ 30.9325954, 3.013382999681163 ] } },
{ "type": "Feature", "properties": { "ID": 4021707445.0, "BizType": "school", "BizName": "West Nile Vocational Centre", "Address1": null, "Address2": null, "PostalBox": null, "City": null, "Tel": null, "Email": null, "Website": null, "Remarks": null }, "geometry": { "type": "Point", "coordinates": [ 30.9325224, 3.014872299681012 ] } },
{ "type": "Feature", "properties": { "ID": 5336485563.0, "BizType": "kindergarten", "BizName": "Trinity Junior School", "Address1": "no", "Address2": null, "PostalBox": null, "City": "Private", "Tel": null, "Email": null, "Website": null, "Remarks": null }, "geometry": { "type": "Point", "coordinates": [ 30.9291853, 3.018676199680631 ] } },
{ "type": "Feature", "properties": { "ID": 5336485580.0, "BizType": "school", "BizName": "Kong's College Arua", "Address1": "no", "Address2": null, "PostalBox": null, "City": "Private", "Tel": null, "Email": null, "Website": null, "Remarks": null }, "geometry": { "type": "Point", "coordinates": [ 30.9292255, 3.018763599680621 ] } },
{ "type": "Feature", "properties": { "ID": 5336485545.0, "BizType": "school", "BizName": "St Leo Educational Center", "Address1": "solar;power_grid", "Address2": null, "PostalBox": null, "City": "Private", "Tel": null, "Email": null, "Website": null, "Remarks": null }, "geometry": { "type": "Point", "coordinates": [ 30.9301845, 3.01879999968062 ] } },
{ "type": "Feature", "properties": { "ID": 5336485530.0, "BizType": "school", "BizName": "Mvara Secondary School- Day section", "Address1": "generator;power_grid", "Address2": null, "PostalBox": null, "City": "Government", "Tel": null, "Email": null, "Website": null, "Remarks": null }, "geometry": { "type": "Point", "coordinates": [ 30.9349603, 3.01588629968091 ] } },
{ "type": "Feature", "properties": { "ID": 4021707426.0, "BizType": "school", "BizName": "Mvara Nursery Primary School", "Address1": null, "Address2": null, "PostalBox": null, "City": null, "Tel": null, "Email": null, "Website": null, "Remarks": null }, "geometry": { "type": "Point", "coordinates": [ 30.9351369, 3.015853299680915 ] } },
{ "type": "Feature", "properties": { "ID": 4021707405.0, "BizType": "school", "BizName": "Bibia Primary School", "Address1": "no", "Address2": null, "PostalBox": null, "City": "Government", "Tel": null, "Email": null, "Website": null, "Remarks": null }, "geometry": { "type": "Point", "coordinates": [ 30.9176746, 3.023790999680117 ] } },
{ "type": "Feature", "properties": { "ID": 4021707391.0, "BizType": "school", "BizName": "Anyafiyo Primary School", "Address1": "power_grid", "Address2": null, "PostalBox": null, "City": "Government", "Tel": null, "Email": null, "Website": null, "Remarks": null }, "geometry": { "type": "Point", "coordinates": [ 30.919733099999988, 3.021756399680322 ] } },
{ "type": "Feature", "properties": { "ID": 4021707390.0, "BizType": "school", "BizName": "Role Model Secondary School - Anyafiyo", "Address1": null, "Address2": null, "PostalBox": null, "City": null, "Tel": null, "Email": null, "Website": null, "Remarks": null }, "geometry": { "type": "Point", "coordinates": [ 30.9207167, 3.021926599680304 ] } },
{ "type": "Feature", "properties": { "ID": 4021707431.0, "BizType": "kindergarten", "BizName": "Nursery School", "Address1": null, "Address2": null, "PostalBox": null, "City": null, "Tel": null, "Email": null, "Website": null, "Remarks": null }, "geometry": { "type": "Point", "coordinates": [ 30.9192551, 3.026083399679888 ] } },
{ "type": "Feature", "properties": { "ID": 5336485538.0, "BizType": "school", "BizName": "New Beginning Vocational School for Intergrated Production", "Address1": "power_grid", "Address2": null, "PostalBox": null, "City": "Private", "Tel": null, "Email": null, "Website": null, "Remarks": null }, "geometry": { "type": "Point", "coordinates": [ 30.925111, 3.022619099680236 ] } },
{ "type": "Feature", "properties": { "ID": 5336485544.0, "BizType": "school", "BizName": "Bright Horizon Nursery School", "Address1": "power_grid", "Address2": null, "PostalBox": null, "City": "Private", "Tel": null, "Email": null, "Website": null, "Remarks": null }, "geometry": { "type": "Point", "coordinates": [ 30.9238045, 3.023820999680114 ] } },
{ "type": "Feature", "properties": { "ID": 4021467578.0, "BizType": "kindergarten", "BizName": "Alihilal Nursery School", "Address1": null, "Address2": null, "PostalBox": null, "City": null, "Tel": null, "Email": null, "Website": null, "Remarks": null }, "geometry": { "type": "Point", "coordinates": [ 30.9158842, 3.03124669967937 ] } },
{ "type": "Feature", "properties": { "ID": 5336485531.0, "BizType": "school", "BizName": "Arua Secondary School", "Address1": "power_grid", "Address2": null, "PostalBox": null, "City": "Government", "Tel": null, "Email": null, "Website": null, "Remarks": null }, "geometry": { "type": "Point", "coordinates": [ 30.9155471, 3.031931899679302 ] } },
{ "type": "Feature", "properties": { "ID": 5357144571.0, "BizType": "school", "BizName": "Pearl Kindergarten and Primary School", "Address1": "no", "Address2": null, "PostalBox": null, "City": "Private", "Tel": null, "Email": null, "Website": null, "Remarks": null }, "geometry": { "type": "Point", "coordinates": [ 30.9170125, 3.031554699679341 ] } },
{ "type": "Feature", "properties": { "ID": 5336485562.0, "BizType": "school", "BizName": "River View Nursery and Primary School", "Address1": "solar", "Address2": null, "PostalBox": null, "City": "Private", "Tel": null, "Email": null, "Website": null, "Remarks": null }, "geometry": { "type": "Point", "coordinates": [ 30.9223617, 3.028901699679605 ] } },
{ "type": "Feature", "properties": { "ID": 5336485533.0, "BizType": "school", "BizName": "Mvara Secondary School", "Address1": "solar;generator;power_grid", "Address2": null, "PostalBox": null, "City": "Government", "Tel": null, "Email": null, "Website": null, "Remarks": null }, "geometry": { "type": "Point", "coordinates": [ 30.9274891, 3.024148299680082 ] } },
{ "type": "Feature", "properties": { "ID": 4021468603.0, "BizType": "school", "BizName": "Primary School", "Address1": null, "Address2": null, "PostalBox": null, "City": null, "Tel": null, "Email": null, "Website": null, "Remarks": null }, "geometry": { "type": "Point", "coordinates": [ 30.9025963, 3.03225609967927 ] } },
{ "type": "Feature", "properties": { "ID": 4021468591.0, "BizType": "school", "BizName": "High Hope Primary School", "Address1": null, "Address2": null, "PostalBox": null, "City": null, "Tel": null, "Email": null, "Website": null, "Remarks": null }, "geometry": { "type": "Point", "coordinates": [ 30.9025677, 3.033833199679111 ] } },
{ "type": "Feature", "properties": { "ID": 5336485596.0, "BizType": "school", "BizName": "Arua Victorious Nurdery & Primary School", "Address1": "power_grid", "Address2": null, "PostalBox": null, "City": "Government", "Tel": null, "Email": null, "Website": null, "Remarks": null }, "geometry": { "type": "Point", "coordinates": [ 30.90245, 3.036231699678869 ] } },
{ "type": "Feature", "properties": { "ID": 4021468609.0, "BizType": "school", "BizName": "Swalihin Primary School", "Address1": null, "Address2": null, "PostalBox": null, "City": null, "Tel": null, "Email": null, "Website": null, "Remarks": null }, "geometry": { "type": "Point", "coordinates": [ 30.9025285, 3.036245499678869 ] } },
{ "type": "Feature", "properties": { "ID": 4021467581.0, "BizType": "school", "BizName": "Arua Nursery Teachers", "Address1": null, "Address2": null, "PostalBox": null, "City": null, "Tel": null, "Email": null, "Website": null, "Remarks": null }, "geometry": { "type": "Point", "coordinates": [ 30.9040855, 3.035424699678951 ] } },
{ "type": "Feature", "properties": { "ID": 4021468604.0, "BizType": "school", "BizName": "Rippon's Academy", "Address1": null, "Address2": null, "PostalBox": null, "City": null, "Tel": null, "Email": null, "Website": null, "Remarks": null }, "geometry": { "type": "Point", "coordinates": [ 30.9044621, 3.038374499678656 ] } },
{ "type": "Feature", "properties": { "ID": 5336485543.0, "BizType": "school", "BizName": "Star Primary School", "Address1": "no", "Address2": null, "PostalBox": null, "City": null, "Tel": null, "Email": null, "Website": null, "Remarks": null }, "geometry": { "type": "Point", "coordinates": [ 30.9064283, 3.03372999967912 ] } },
{ "type": "Feature", "properties": { "ID": 5336485588.0, "BizType": "kindergarten", "BizName": "Shinning Start Nursery School", "Address1": "solar", "Address2": null, "PostalBox": null, "City": "Private", "Tel": null, "Email": null, "Website": null, "Remarks": null }, "geometry": { "type": "Point", "coordinates": [ 30.9063317, 3.037408299678752 ] } },
{ "type": "Feature", "properties": { "ID": 5357144577.0, "BizType": "school", "BizName": "Greenland Primary School", "Address1": "power_grid", "Address2": null, "PostalBox": null, "City": "Community", "Tel": null, "Email": null, "Website": null, "Remarks": null }, "geometry": { "type": "Point", "coordinates": [ 30.90941, 3.035919999678902 ] } },
{ "type": "Feature", "properties": { "ID": 5357144559.0, "BizType": "school", "BizName": "Star Nursery school", "Address1": "no", "Address2": null, "PostalBox": null, "City": "Private", "Tel": null, "Email": null, "Website": null, "Remarks": null }, "geometry": { "type": "Point", "coordinates": [ 30.91096, 3.032259999679269 ] } },
{ "type": "Feature", "properties": { "ID": 4021467587.0, "BizType": "kindergarten", "BizName": "Bilal Nursery School", "Address1": null, "Address2": null, "PostalBox": null, "City": null, "Tel": null, "Email": null, "Website": null, "Remarks": null }, "geometry": { "type": "Point", "coordinates": [ 30.9111456, 3.032374399679257 ] } },
{ "type": "Feature", "properties": { "ID": 4021468599.0, "BizType": "school", "BizName": "Oli Parents Primary school", "Address1": "power_grid", "Address2": null, "PostalBox": null, "City": "Government", "Tel": null, "Email": null, "Website": null, "Remarks": null }, "geometry": { "type": "Point", "coordinates": [ 30.9105066, 3.03354099967914 ] } },
{ "type": "Feature", "properties": { "ID": 4021467582.0, "BizType": "school", "BizName": "Arua Nursery and Primary school", "Address1": "generator;power_grid", "Address2": null, "PostalBox": null, "City": "Government", "Tel": null, "Email": null, "Website": null, "Remarks": null }, "geometry": { "type": "Point", "coordinates": [ 30.9147303, 3.032439799679252 ] } },
{ "type": "Feature", "properties": { "ID": 5357144598.0, "BizType": "school", "BizName": "Winston Nursery and Primary School", "Address1": "power_grid", "Address2": null, "PostalBox": null, "City": "Winston Nursery and primary school", "Tel": null, "Email": null, "Website": null, "Remarks": null }, "geometry": { "type": "Point", "coordinates": [ 30.9149164, 3.035558099678938 ] } },
{ "type": "Feature", "properties": { "ID": 1660640544.0, "BizType": "school", "BizName": "Najja Primary School", "Address1": "no", "Address2": null, "PostalBox": null, "City": "Government", "Tel": null, "Email": null, "Website": null, "Remarks": null }, "geometry": { "type": "Point", "coordinates": [ 30.9140185, 3.037089999678785 ] } },
{ "type": "Feature", "properties": { "ID": 5336485553.0, "BizType": "school", "BizName": "Standard College School", "Address1": "solar;generator;power_grid", "Address2": null, "PostalBox": null, "City": "Private", "Tel": null, "Email": null, "Website": null, "Remarks": null }, "geometry": { "type": "Point", "coordinates": [ 30.91377, 3.037578299678736 ] } },
{ "type": "Feature", "properties": { "ID": 5336485592.0, "BizType": "school", "BizName": "Tanganyika Valley Nursery And Primary School", "Address1": "solar;generator", "Address2": null, "PostalBox": null, "City": "Private", "Tel": null, "Email": null, "Website": null, "Remarks": null }, "geometry": { "type": "Point", "coordinates": [ 30.9113467, 3.037798299678713 ] } },
{ "type": "Feature", "properties": { "ID": 5336485577.0, "BizType": "school", "BizName": "Institute Of Accounts And Commerce", "Address1": "power_grid", "Address2": null, "PostalBox": null, "City": "Private", "Tel": null, "Email": null, "Website": null, "Remarks": null }, "geometry": { "type": "Point", "coordinates": [ 30.91303, 3.0389349996786 ] } },
{ "type": "Feature", "properties": { "ID": 4021468593.0, "BizType": "kindergarten", "BizName": "Iqram Nursery School", "Address1": null, "Address2": null, "PostalBox": null, "City": null, "Tel": null, "Email": null, "Website": null, "Remarks": null }, "geometry": { "type": "Point", "coordinates": [ 30.9192323, 3.035794499678914 ] } }
]
}
